[{"id":2964574.0,"name":"Dublin","state":"","country":"IE","coord":{"lon":-6.26719,"lat":53.34399}},{"id":2965140.0,"name":"Cork","state":"","country":"IE","coord":{"lon":-8.47061,"lat":51.897968}},{"id":2643743.0,"name":"London","state":"","country":"GB","coord":{"lon":-0.12574,"lat":51.50853}},{"id":2655603.0,"name":"Birmingham","state":"","country":"GB","coord":{"lon":-1.89983,"lat":52.481419}},{"id":2644210.0,"name":"Liverpool","state":"","country":"GB","coord":{"lon":-2.97794,"lat":53.41058}},{"id":2638077.0,"name":"Sheffield","state":"","country":"GB","coord":{"lon":-1.4659,"lat":53.382969}},{"id":2654675.0,"name":"Bristol","state":"","country":"GB","coord":{"lon":-2.59665,"lat":51.455231}},{"id":2648579.0,"name":"Glasgow","state":"","country":"GB","coord":{"lon":-4.25763,"lat":55.86515}},{"id":2644668.0,"name":"Leicester","state":"","country":"GB","coord":{"lon":-1.13169,"lat":52.638599}},{"id":2650225.0,"name":"Edinburgh","state":"","country":"GB","coord":{"lon":-3.19648,"lat":55.952061}},{"id":2644688.0,"name":"Leeds","state":"","country":"GB","coord":{"lon":-1.54785,"lat":53.796478}},{"id":2653822.0,"name":"Cardiff","state":"","country":"GB","coord":{"lon":-3.18,"lat":51.48}},{"id":2643123.0,"name":"Manchester","state":"","country":"GB","coord":{"lon":-2.23743,"lat":53.480949}},{"id":2636841.0,"name":"Stoke-on-Trent","state":"","country":"GB","coord":{"lon":-2.18538,"lat":53.00415}},{"id":2652221.0,"name":"Coventry","state":"","country":"GB","coord":{"lon":-1.51217,"lat":52.406559}},{"id":2636531.0,"name":"Sunderland","state":"","country":"GB","coord":{"lon":-1.38222,"lat":54.904652}},{"id":2641170.0,"name":"Nottingham","state":"","country":"GB","coord":{"lon":-1.15047,"lat":52.953602}},{"id":2639577.0,"name":"Reading","state":"","country":"GB","coord":{"lon":-0.97113,"lat":51.456249}},{"id":2645425.0,"name":"Kingston upon Hull","state":"","country":"GB","coord":{"lon":-0.33525,"lat":53.744598}},{"id":2639912.0,"name":"Preston","state":"","country":"GB","coord":{"lon":-2.71667,"lat":53.76667}},{"id":2641594.0,"name":"Newport","state":"","country":"GB","coord":{"lon":-0.69986,"lat":53.763329}},{"id":2636432.0,"name":"Swansea","state":"","country":"GB","coord":{"lon":-3.94323,"lat":51.620789}},{"id":2654993.0,"name":"Bradford","state":"","country":"GB","coord":{"lon":-1.75206,"lat":53.793911}},{"id":2637433.0,"name":"Southend-on-Sea","state":"","country":"GB","coord":{"lon":0.71433,"lat":51.537819}},{"id":2655984.0,"name":"Belfast","state":"","country":"GB","coord":{"lon":-5.93333,"lat":54.583328}},{"id":2651347.0,"name":"Derby","state":"","country":"GB","coord":{"lon":-1.47663,"lat":52.922771}},{"id":2640194.0,"name":"Plymouth","state":"","country":"GB","coord":{"lon":-4.14305,"lat":50.371529}},{"id":2643339.0,"name":"Luton","state":"","country":"GB","coord":{"lon":-0.41748,"lat":51.879669}},{"id":2633691.0,"name":"Wolverhampton","state":"","country":"GB","coord":{"lon":-2.12296,"lat":52.585468}},{"id":2634341.0,"name":"City of Westminster","state":"","country":"GB","coord":{"lon":-0.11667,"lat":51.5}},{"id":2637487.0,"name":"Southampton","state":"","country":"GB","coord":{"lon":-1.40428,"lat":50.90395}},{"id":2655459.0,"name":"Blackpool","state":"","country":"GB","coord":{"lon":-3.05,"lat":53.816669}},{"id":2642465.0,"name":"Milton Keynes","state":"","country":"GB","coord":{"lon":-0.75583,"lat":52.041721}},{"id":3333124.0,"name":"Bexley","state":"","country":"GB","coord":{"lon":0.13333,"lat":51.416672}},{"id":2641430.0,"name":"Northampton","state":"","country":"GB","coord":{"lon":-0.88333,"lat":52.25}},{"id":2641181.0,"name":"Norwich","state":"","country":"GB","coord":{"lon":1.29834,"lat":52.627831}},{"id":2650839.0,"name":"Dudley","state":"","country":"GB","coord":{"lon":-2.08333,"lat":52.5}},{"id":2657832.0,"name":"Aberdeen","state":"","country":"GB","coord":{"lon":-2.09814,"lat":57.143688}},{"id":2639996.0,"name":"Portsmouth","state":"","country":"GB","coord":{"lon":-1.09125,"lat":50.798988}},{"id":2641673.0,"name":"Newcastle upon Tyne","state":"","country":"GB","coord":{"lon":-1.61396,"lat":54.973282}},{"id":2636499.0,"name":"Sutton","state":"","country":"GB","coord":{"lon":-2.68333,"lat":52.099998}},{"id":2636388.0,"name":"Swindon","state":"","country":"GB","coord":{"lon":-2.09581,"lat":51.922619}},{"id":2652053.0,"name":"Crawley","state":"","country":"GB","coord":{"lon":-0.18312,"lat":51.113029}},{"id":2646057.0,"name":"Ipswich","state":"","country":"GB","coord":{"lon":1.15545,"lat":52.05917}},{"id":2633948.0,"name":"Wigan","state":"","country":"GB","coord":{"lon":-2.61667,"lat":53.533329}},{"id":2651817.0,"name":"Croydon","state":"","country":"GB","coord":{"lon":-0.1,"lat":51.383331}},{"id":2634853.0,"name":"Walsall","state":"","country":"GB","coord":{"lon":-1.98396,"lat":52.585281}},{"id":2643097.0,"name":"Mansfield","state":"","country":"GB","coord":{"lon":-1.2,"lat":53.133331}},{"id":2640729.0,"name":"Oxford","state":"","country":"GB","coord":{"lon":-1.25596,"lat":51.75222}},{"id":2634739.0,"name":"Warrington","state":"","country":"GB","coord":{"lon":-2.58024,"lat":53.39254}},{"id":2637626.0,"name":"Slough","state":"","country":"GB","coord":{"lon":-0.83333,"lat":51.666672}},{"id":2655095.0,"name":"Bournemouth","state":"","country":"GB","coord":{"lon":-1.8795,"lat":50.720482}},{"id":2640354.0,"name":"Peterborough","state":"","country":"GB","coord":{"lon":-0.24777,"lat":52.573639}},{"id":2653941.0,"name":"Cambridge","state":"","country":"GB","coord":{"lon":0.11667,"lat":52.200001}},{"id":2651123.0,"name":"Doncaster","state":"","country":"GB","coord":{"lon":-1.13691,"lat":53.52327}},{"id":2633352.0,"name":"York","state":"","country":"GB","coord":{"lon":-1.08271,"lat":53.95763}},{"id":2640101.0,"name":"Poole","state":"","country":"GB","coord":{"lon":-2.0,"lat":50.716671}},{"id":2648404.0,"name":"Gloucester","state":"","country":"GB","coord":{"lon":-2.2431,"lat":51.865681}},{"id":2654264.0,"name":"Burnley","state":"","country":"GB","coord":{"lon":-2.23333,"lat":53.799999}},{"id":2646458.0,"name":"Huddersfield","state":"","country":"GB","coord":{"lon":-1.78416,"lat":53.64904}}]